{"version": 0.6, "generator": "Overpass API 0.7.59.4 36d058c8", "osm3s": {"timestamp_osm_base": "2023-03-08T11:58:37Z", "copyright": "The data included in this document is from www.openstreetmap.org. The data is made available under ODbL."}, "elements": [{"type": "node", "id": 1856745938, "lat": 52.972257, "lon": 15.7419648, "tags": {"barrier": "gate"}}, {"type": "node", "id": 2063018128, "lat": 52.9717146, "lon": 15.7410018}, {"type": "node", "id": 2063018135, "lat": 52.9717454, "lon": 15.7420164}, {"type": "node", "id": 2063018193, "lat": 52.9720358, "lon": 15.7408544, "tags": {"barrier": "gate"}}, {"type": "node", "id": 2063018308, "lat": 52.9726506, "lon": 15.7409569}, {"type": "node", "id": 2063018315, "lat": 52.9726723, "lon": 15.7419473}, {"type": "node", "id": 6340870802, "lat": 52.972044, "lon": 15.7409408}, {"type": "node", "id": 6340870803, "lat": 52.9725932, "lon": 15.7409086}, {"type": "node", "id": 6340870804, "lat": 52.9725706, "lon": 15.7402864}, {"type": "node", "id": 6340870805, "lat": 52.9720279, "lon": 15.7403293}, {"type": "way", "id": 195909612, "nodes": [2063018308, 2063018315, 1856745938, 2063018135, 2063018128, 2063018308], "tags": {"barrier": "fence", "name": "Stacja elektroenergetyczna 110/15kV Dobiegniew", "operator": "Enea Operator", "power": "substation", "ref": "DBG", "substation": "distribution", "voltage": "110000;15000"}}, {"type": "way", "id": 677189623, "nodes": [6340870802, 6340870803, 6340870804, 6340870805, 2063018193, 6340870802], "tags": {"barrier": "fence", "landuse": "railway", "name": "Podstacja trakcyjna \"Dobiegniew\"", "operator": "PKP Energetyka", "operator:wikidata": "Q7119525", "operator:wikipedia": "pl:PKP Energetyka", "power": "substation", "short_name": "PT Dobiegniew", "substation": "traction"}}]}