{"version": 0.6, "generator": "Overpass API 0.7.59.4 36d058c8", "osm3s": {"timestamp_osm_base": "2023-03-08T10:04:08Z", "copyright": "The data included in this document is from www.openstreetmap.org. The data is made available under ODbL."}, "elements": [{"type": "node", "id": 1596336358, "lat": 45.9659483, "lon": -0.8605129}, {"type": "node", "id": 1596336359, "lat": 45.9667622, "lon": -0.8620072}, {"type": "node", "id": 1596336360, "lat": 45.9673818, "lon": -0.8589181}, {"type": "node", "id": 1596336363, "lat": 45.9681805, "lon": -0.8604124}, {"type": "node", "id": 4722803310, "lat": 45.9674438, "lon": -0.8612418, "tags": {"barrier": "gate"}}, {"type": "node", "id": 4722803365, "lat": 45.9673898, "lon": -0.8613015}, {"type": "node", "id": 4722803366, "lat": 45.9674966, "lon": -0.8611814}, {"type": "node", "id": 7434937482, "lat": 45.9590384, "lon": -0.8454537, "tags": {"design:ref": "PSSA", "location": "green", "man_made": "street_cabinet", "operator": "Enedis", "power": "substation", "substation": "minor_distribution", "utility": "power", "voltage": "20000"}}, {"type": "way", "id": 146366949, "nodes": [1596336359, 4722803365, 4722803310, 4722803366, 1596336363, 1596336360, 1596336358, 1596336359], "tags": {"barrier": "fence", "location": "outdoor", "name": "Poste \u00e9lectrique de La Farradiere", "operator": "RTE", "operator:wikidata": "Q2178795", "power": "substation", "ref:FR:RTE": "FARRA", "ref:FR:RTE_nom": "FARRADIERE (LA)", "source": "data.gouv.fr:RTE - 04/2017", "substation": "transmission", "voltage": "225000;90000"}}]}