{"version": 0.6, "generator": "Overpass API 0.7.59.4 36d058c8", "osm3s": {"timestamp_osm_base": "2023-03-08T10:02:09Z", "copyright": "The data included in this document is from www.openstreetmap.org. The data is made available under ODbL."}, "elements": [{"type": "node", "id": 2757649595, "lat": -41.2758099, "lon": 174.7811141}, {"type": "node", "id": 2757649596, "lat": -41.2757864, "lon": 174.7813298}, {"type": "node", "id": 2757649599, "lat": -41.2758786, "lon": 174.7812017}, {"type": "node", "id": 2757649600, "lat": -41.2757177, "lon": 174.7812422}, {"type": "node", "id": 3693030361, "lat": -41.2747973, "lon": 174.7842677}, {"type": "node", "id": 3693030362, "lat": -41.2751436, "lon": 174.7841159}, {"type": "node", "id": 3693030363, "lat": -41.2747777, "lon": 174.7841886}, {"type": "node", "id": 3693030364, "lat": -41.275124, "lon": 174.7840368}, {"type": "way", "id": 270779420, "nodes": [2757649599, 2757649595, 2757649600, 2757649596, 2757649599], "tags": {"location": "indoor", "name": "Moore Street zone substation", "operator": "Wellington Electricity", "operator:wikidata": "Q7981392", "operator:wikipedia": "en:Wellington Electricity", "power": "substation", "substation": "distribution", "voltage": "33000;11000"}}, {"type": "way", "id": 365272861, "nodes": [3693030364, 3693030363, 3693030361, 3693030362, 3693030364], "tags": {"building": "yes", "location": "indoor", "name": "Wellington rail traction substation", "operator": "KiwiRail", "operator:wikidata": "Q3788105", "operator:wikipedia": "en:KiwiRail", "power": "substation", "substation": "traction", "voltage": "11000;1500"}}]}