{"version": 0.6, "generator": "Overpass API 0.7.59.4 36d058c8", "osm3s": {"timestamp_osm_base": "2023-03-08T10:01:08Z", "copyright": "The data included in this document is from www.openstreetmap.org. The data is made available under ODbL."}, "elements": [{"type": "node", "id": 1423294954, "lat": 45.6688616, "lon": 5.1430683}, {"type": "node", "id": 1423294959, "lat": 45.6688625, "lon": 5.143041}, {"type": "node", "id": 1423295003, "lat": 45.668891, "lon": 5.1430704}, {"type": "node", "id": 1423295005, "lat": 45.6688919, "lon": 5.143043}, {"type": "node", "id": 9966704094, "lat": 45.6674777, "lon": 5.1432686, "tags": {"location": "green", "man_made": "street_cabinet", "name": "Rubiau", "operator": "Enedis", "operator:wikidata": "Q3587594", "power": "substation", "street_cabinet": "power", "substation": "minor_distribution", "transformer": "distribution", "voltage:primary": "20000", "voltage:secondary": "400"}}, {"type": "node", "id": 10178964216, "lat": 45.6736947, "lon": 5.1434885, "tags": {"design:ref": "PSSA", "location": "green", "man_made": "street_cabinet", "name": "Billaudi\u00e8re", "operator": "Enedis", "power": "substation", "substation": "minor_distribution", "transformer": "distribution", "utility": "power", "voltage:primary": "20000", "voltage:secondary": "400"}}, {"type": "way", "id": 128916511, "nodes": [1423294954, 1423295003, 1423295005, 1423294959, 1423294954], "tags": {"building": "service", "building:levels": "1", "location": "indoor", "name": "Chaffard", "operator": "Enedis", "operator:wikidata": "Q3587594", "power": "substation", "ref:FR:gdo": "38475P0009", "service": "utility", "source": "cadastre-dgi-fr source : Direction G\u00e9n\u00e9rale des Imp\u00f4ts - Cadastre. Mise \u00e0 jour : 2011", "substation": "minor_distribution", "utility": "power", "voltage": "20000;400"}}]}