{"version": 0.6, "generator": "Overpass API 0.7.59.4 36d058c8", "osm3s": {"timestamp_osm_base": "2023-03-08T10:54:54Z", "copyright": "The data included in this document is from www.openstreetmap.org. The data is made available under ODbL."}, "elements": [{"type": "node", "id": 9847642418, "lat": 45.1139036, "lon": 5.7285577, "tags": {"name": "CHAMPAGNIER", "operator": "Enedis", "power": "substation", "ref:FR:gdo": "38068 P0015", "substation": "minor_distribution", "voltage": "20000"}}, {"type": "node", "id": 10106471718, "lat": 45.1161085, "lon": 5.7247071, "tags": {"name": "Mas des Treilles", "operator": "Enedis", "power": "substation", "ref:FR:gdo": "38068 P0014", "substation": "minor_distribution", "voltage": "20000"}}, {"type": "node", "id": 10106494517, "lat": 45.1150075, "lon": 5.7237886, "tags": {"design:ref": "PSSA", "man_made": "street_cabinet", "name": "Piollier", "operator": "Enedis", "power": "substation", "ref:FR:gdo": "38068 P0013", "street_cabinet": "power", "substation": "minor_distribution", "voltage": "20000"}}, {"type": "node", "id": 10106501917, "lat": 45.1158333, "lon": 5.7179533, "tags": {"name": "Les Faisses", "operator": "Enedis", "power": "substation", "ref:FR:gdo": "38068 P0009", "substation": "minor_distribution", "voltage": "20000"}}, {"type": "node", "id": 10106527818, "lat": 45.1100573, "lon": 5.7249112, "tags": {"name": "Foullet", "operator": "Enedis", "power": "substation", "ref:FR:gdo": "38068 P0008", "substation": "minor_distribution", "voltage": "20000"}}, {"type": "node", "id": 10106533118, "lat": 45.106297, "lon": 5.7305301, "tags": {"name": "Le Clos", "operator": "Enedis", "power": "substation", "ref:FR:gdo": "38068 P0011", "substation": "minor_distribution", "voltage": "20000"}}, {"type": "node", "id": 10106539717, "lat": 45.1092277, "lon": 5.7293966, "tags": {"name": "Lotissement", "operator": "Enedis", "power": "substation", "ref:FR:gdo": "38068 P0001", "substation": "minor_distribution", "voltage": "20000"}}, {"type": "node", "id": 10106539718, "lat": 45.1089306, "lon": 5.7309847, "tags": {"name": "Rochagnon", "operator": "Enedis", "power": "substation", "ref:FR:gdo": "38068 P0005", "substation": "minor_distribution", "voltage": "20000"}}, {"type": "node", "id": 10106562318, "lat": 45.109031, "lon": 5.7309311, "tags": {"man_made": "street_cabinet", "name": "B15 Rochagnon", "operator": "Enedis", "power": "substation", "ref:FR:gdo": "38068 P6005", "street_cabinet": "power", "substation": "minor_distribution", "voltage": "20000"}}, {"type": "node", "id": 10106579717, "lat": 45.1139405, "lon": 5.7384664, "tags": {"name": "Pr\u00e9 Langon", "operator": "Enedis", "power": "substation", "ref:FR:gdo": "38068 P0012", "substation": "minor_distribution", "voltage": "20000"}}, {"type": "node", "id": 10175720917, "lat": 45.1140997, "lon": 5.7309502, "tags": {"name": "Hameau du Laca", "operator": "Enedis", "power": "substation", "ref:FR:gdo": "38068P0026", "substation": "minor_distribution", "voltage": "20000"}}, {"type": "node", "id": 10175766817, "lat": 45.1026174, "lon": 5.7175516, "tags": {"name": "Lenormand", "operator": "Enedis", "power": "substation", "ref:FR:gdo": "38068P0010", "substation": "minor_distribution", "voltage": "20000"}}]}